[
  {
    "slug": "kenting-nanwan",
    "name": "墾丁南灣",
    "lat": 21.96,
    "lon": 120.75,
    "description": "南台灣最熱門浪點，夏季西南湧浪最佳，適合各級",
    "region": "南台灣",
    "tide_station": "高雄",
    "sub_spots": [
      "南灣沙灘",
      "白沙灣",
      "後壁湖"
    ]
  },
  {
    "slug": "northeast-cape",
    "name": "東北角",
    "lat": 25.12,
    "lon": 121.93,
    "description": "北台灣冬季首選，東北季風強勁，中高級為主",
    "region": "北台灣",
    "tide_station": "基隆",
    "sub_spots": [
      "金沙灣",
      "中角灣",
      "龍洞灣",
      "鹽寮",
      "福隆"
    ]
  },
  {
    "slug": "jiqi",
    "name": "磯崎",
    "lat": 23.61,
    "lon": 121.6,
    "description": "東岸穩定浪點，全年均可，初中級皆宜",
    "region": "東海岸",
    "tide_station": "花蓮",
    "sub_spots": [
      "磯崎海水浴場",
      "磯崎北灘"
    ]
  },
  {
    "slug": "songbo",
    "name": "松柏港",
    "lat": 24.4255,
    "lon": 120.6126,
    "description": "台中大甲松柏漁港，西海岸面向台灣海峽，受東北季風影響大",
    "region": "西海岸",
    "tide_station": "松柏",
    "sub_spots": [
      "松柏漁港"
    ]
  },
  {
    "slug": "chenggong",
    "name": "成功",
    "lat": 23.1,
    "lon": 121.38,
    "description": "東海岸南段，夏季湧浪穩定，適合中高級",
    "region": "東海岸",
    "tide_station": "成功",
    "sub_spots": [
      "成功漁港",
      "三仙台",
      "石雨傘"
    ]
  },
  {
    "slug": "hualien",
    "name": "花蓮",
    "lat": 23.98,
    "lon": 121.6,
    "description": "東部大城，浪況穩定，設施完善，初中級皆宜",
    "region": "東海岸",
    "tide_station": "花蓮",
    "sub_spots": [
      "七星潭",
      "南濱海灘",
      "花蓮港南堤"
    ]
  },
  {
    "slug": "taitung",
    "name": "台東",
    "lat": 22.76,
    "lon": 121.14,
    "description": "東海岸南段，夏季受颱風湧浪影響，多樣地形",
    "region": "東海岸",
    "tide_station": "台東",
    "sub_spots": [
      "都蘭灣",
      "荳蘭衝浪灣",
      "杉原海水浴場",
      "太麻里金針山海灘"
    ]
  },
  {
    "slug": "shi-men-dong",
    "name": "石門洞",
    "lat": 25.301,
    "lon": 121.568,
    "description": "位於新北市石門區的海蝕洞地形衝浪點，以礁石底、左跑浪為主，適合中進階衝浪者。",
    "region": "北台灣",
    "tide_station": "基隆",
    "sub_spots": [
      "石門洞主浪區",
      "石門老梅"
    ]
  },
  {
    "slug": "jialeshui",
    "name": "佳樂水",
    "lat": 21.93,
    "lon": 120.84,
    "description": "墾丁東南角礁盤浪點，東北季風與颱風湧浪均有良好表現，以管浪聞名，適合中高級。",
    "region": "南台灣",
    "tide_station": "高雄",
    "sub_spots": [
      "佳樂水主浪區",
      "龍磐海岸"
    ]
  },
  {
    "slug": "donghe",
    "name": "東河",
    "lat": 23.22,
    "lon": 121.38,
    "description": "台東縣東河鄉，馬武窟溪口沙底浪點，浪形規律，適合初中級，社群活躍。",
    "region": "東海岸",
    "tide_station": "成功",
    "sub_spots": [
      "東河橋",
      "馬武窟溪口",
      "都蘭灣北段"
    ]
  },
  {
    "slug": "yuguang",
    "name": "魚光島",
    "lat": 22.97,
    "lon": 120.14,
    "description": "台南安平外海沙洲島，西海岸罕見衝浪點，夏季西南湧浪可衝，沙底適合初學者。",
    "region": "西海岸",
    "tide_station": "安平",
    "sub_spots": [
      "漁光島主灘",
      "安平外海沙洲"
    ]
  },
  {
    "slug": "jiao-qi",
    "name": "礁崎",
    "lat": 24.74,
    "lon": 121.88,
    "description": "位於宜蘭縣的礁崎海灘，東北季風盛行期浪況穩定，為北部熱門衝浪點。",
    "region": "北台灣",
    "tide_station": "蘇澳",
    "sub_spots": [
      "礁崎海水浴場"
    ]
  }
]
